{
    "postalCodes": [
        {
            "adminCode2": "003",
            "adminCode1": "NJ",
            "adminName2": "Bergen",
            "lng": -73.930842,
            "distance": "0",
            "countryCode": "US",
            "postalCode": "07620",
            "adminName1": "New Jersey",
            "placeName": "Alpine",
            "lat": 40.951097
        },
        {
            "adminCode2": "003",
            "adminCode1": "NJ",
            "adminName2": "Bergen",
            "lng": -73.960221,
            "distance": "2.50079",
            "countryCode": "US",
            "postalCode": "07627",
            "adminName1": "New Jersey",
            "placeName": "Demarest",
            "lat": 40.954775
        },
        {
            "adminCode2": "003",
            "adminCode1": "NJ",
            "adminName2": "Bergen",
            "lng": -73.965206,
            "distance": "3.06381",
            "countryCode": "US",
            "postalCode": "07626",
            "adminName1": "New Jersey",
            "placeName": "Cresskill",
            "lat": 40.941847
        },
        {
            "adminCode2": "003",
            "adminCode1": "NJ",
            "adminName2": "Bergen",
            "lng": -73.958985,
            "distance": "3.31845",
            "countryCode": "US",
            "postalCode": "07624",
            "adminName1": "New Jersey",
            "placeName": "Closter",
            "lat": 40.972051
        },
        {
            "adminCode2": "119",
            "adminCode1": "NY",
            "adminName2": "Westchester",
            "lng": -73.8987469,
            "distance": "3.48659",
            "countryCode": "US",
            "postalCode": "10702",
            "adminName1": "New York",
            "placeName": "Yonkers",
            "lat": 40.9312099
        },
        {
            "adminCode2": "119",
            "adminCode1": "NY",
            "adminName2": "Westchester",
            "lng": -73.885163,
            "distance": "3.83673",
            "countryCode": "US",
            "postalCode": "10703",
            "adminName1": "New York",
            "placeName": "Yonkers",
            "lat": 40.951763
        },
        {
            "adminCode2": "003",
            "adminCode1": "NJ",
            "adminName2": "Bergen",
            "lng": -73.965906,
            "distance": "4.40844",
            "countryCode": "US",
            "postalCode": "07670",
            "adminName1": "New Jersey",
            "placeName": "Tenafly",
            "lat": 40.921596
        },
        {
            "adminCode2": "119",
            "adminCode1": "NY",
            "adminName2": "Westchester",
            "lng": -73.895041,
            "distance": "4.78141",
            "countryCode": "US",
            "postalCode": "10705",
            "adminName1": "New York",
            "placeName": "Yonkers",
            "lat": 40.917665
        },
        {
            "adminCode2": "003",
            "adminCode1": "NJ",
            "adminName2": "Bergen",
            "lng": -73.987376,
            "distance": "4.86851",
            "countryCode": "US",
            "postalCode": "07641",
            "adminName1": "New Jersey",
            "placeName": "Haworth",
            "lat": 40.960808
        },
        {
            "adminCode2": "003",
            "adminCode1": "NJ",
            "adminName2": "Bergen",
            "lng": -73.992139,
            "distance": "5.19688",
            "countryCode": "US",
            "postalCode": "07628",
            "adminName1": "New Jersey",
            "placeName": "Dumont",
            "lat": 40.944692
        },
        {
            "adminCode2": "119",
            "adminCode1": "NY",
            "adminName2": "Westchester",
            "lng": -73.866926,
            "distance": "5.39634",
            "countryCode": "US",
            "postalCode": "10701",
            "adminName1": "New York",
            "placeName": "Yonkers",
            "lat": 40.946107
        },
        {
            "adminCode2": "003",
            "adminCode1": "NJ",
            "adminName2": "Bergen",
            "lng": -73.95817,
            "distance": "5.41704",
            "countryCode": "US",
            "postalCode": "07648",
            "adminName1": "New Jersey",
            "placeName": "Norwood",
            "lat": 40.995231
        },
        {
            "adminCode2": "005",
            "adminCode1": "NY",
            "adminName2": "Bronx",
            "lng": -73.905283,
            "distance": "5.96107",
            "countryCode": "US",
            "postalCode": "10471",
            "adminName1": "New York",
            "placeName": "Bronx",
            "lat": 40.901084
        },
        {
            "adminCode2": "003",
            "adminCode1": "NJ",
            "adminName2": "Bergen",
            "lng": -73.980017,
            "distance": "6.12508",
            "countryCode": "US",
            "postalCode": "07640",
            "adminName1": "New Jersey",
            "placeName": "Harrington Park",
            "lat": 40.991791
        },
        {
            "adminCode2": "003",
            "adminCode1": "NJ",
            "adminName2": "Bergen",
            "lng": -73.93893,
            "distance": "6.43366",
            "countryCode": "US",
            "postalCode": "07647",
            "adminName1": "New Jersey",
            "placeName": "Northvale",
            "lat": 41.008636
        },
        {
            "adminCode2": "003",
            "adminCode1": "NJ",
            "adminName2": "Bergen",
            "lng": -73.998918,
            "distance": "6.47174",
            "countryCode": "US",
            "postalCode": "07621",
            "adminName1": "New Jersey",
            "placeName": "Bergenfield",
            "lat": 40.923837
        },
        {
            "adminCode2": "087",
            "adminCode1": "NY",
            "adminName2": "Rockland",
            "lng": -73.924985,
            "distance": "6.59699",
            "countryCode": "US",
            "postalCode": "10964",
            "adminName1": "New York",
            "placeName": "Palisades",
            "lat": 41.010263
        },
        {
            "adminCode2": "119",
            "adminCode1": "NY",
            "adminName2": "Westchester",
            "lng": -73.862969,
            "distance": "7.0087",
            "countryCode": "US",
            "postalCode": "10706",
            "adminName1": "New York",
            "placeName": "Hastings On Hudson",
            "lat": 40.987797
        },
        {
            "adminCode2": "119",
            "adminCode1": "NY",
            "adminName2": "Westchester",
            "lng": -73.859347,
            "distance": "7.06478",
            "countryCode": "US",
            "postalCode": "10704",
            "adminName1": "New York",
            "placeName": "Yonkers",
            "lat": 40.917633
        },
        {
            "adminCode2": "003",
            "adminCode1": "NJ",
            "adminName2": "Bergen",
            "lng": -73.977182,
            "distance": "7.42349",
            "countryCode": "US",
            "postalCode": "07631",
            "adminName1": "New Jersey",
            "placeName": "Englewood",
            "lat": 40.894251
        }
    ]
}